{
"type": "FeatureCollection",
"name": "trailLandmarks",
"crs": { "type": "name", "properties": { "name": "urn:ogc:def:crs:OGC:1.3:CRS84" } },
"features": [
{ "type": "Feature", "properties": { "Name": "Cerro de la Plata 2710 m", "descriptio": "Cerro de la Plata 2710 m", "timestamp": null, "begin": null, "end": null, "altitudeMo": null, "tessellate": -1, "extrude": 0, "visibility": -1, "drawOrder": null, "icon": null }, "geometry": { "type": "Point", "coordinates": [ -78.796845380751691, 0.347662750448787 ] } },
{ "type": "Feature", "properties": { "Name": "Observatory", "descriptio": "Observatory", "timestamp": null, "begin": null, "end": null, "altitudeMo": null, "tessellate": -1, "extrude": 0, "visibility": -1, "drawOrder": null, "icon": null }, "geometry": { "type": "Point", "coordinates": [ -78.783014634869829, 0.28896303581815 ] } },
{ "type": "Feature", "properties": { "Name": "Waterfall", "descriptio": "Waterfall", "timestamp": null, "begin": null, "end": null, "altitudeMo": null, "tessellate": -1, "extrude": 0, "visibility": -1, "drawOrder": null, "icon": null }, "geometry": { "type": "Point", "coordinates": [ -78.792412539075769, 0.308398695913157 ] } },
{ "type": "Feature", "properties": { "Name": "New Waterfall", "descriptio": "New Waterfall", "timestamp": null, "begin": null, "end": null, "altitudeMo": null, "tessellate": -1, "extrude": 0, "visibility": -1, "drawOrder": null, "icon": null }, "geometry": { "type": "Point", "coordinates": [ -78.781198001207528, 0.324757038150857 ] } },
{ "type": "Feature", "properties": { "Name": "Inca", "descriptio": "Inca", "timestamp": null, "begin": null, "end": null, "altitudeMo": null, "tessellate": -1, "extrude": 0, "visibility": -1, "drawOrder": null, "icon": null }, "geometry": { "type": "Point", "coordinates": [ -78.775911484630043, 0.313188650933493 ] } },
{ "type": "Feature", "properties": { "Name": "Oso", "descriptio": "Oso", "timestamp": null, "begin": null, "end": null, "altitudeMo": null, "tessellate": -1, "extrude": 0, "visibility": -1, "drawOrder": null, "icon": null }, "geometry": { "type": "Point", "coordinates": [ -78.789362941011575, 0.328050427776697 ] } }
]
}
